<?xml version="1.0" encoding="utf-8" ?>
<kml xmlns="http://www.opengis.net/kml/2.2">
<Document id="root_doc">
<Schema name="Roteiro_98_2025.04.10" id="Roteiro_98_2025.04.10">
	<SimpleField name="Nome" type="string"></SimpleField>
</Schema>
<Folder><name>Roteiro_98_2025.04.10</name>
  <Placemark>
	<name>BALNEARIO CACHOEIRA GRANDE</name>
      <Point><coordinates>-50.1723,-15.9225</coordinates></Point>
  </Placemark>
  <Placemark>
	<name>BARRA DO MONJOLO</name>
      <Point><coordinates>-50.1808,-17.7322</coordinates></Point>
  </Placemark>
  <Placemark>
	<name>FAZENDA PACIÊNCIA</name>
      <Point><coordinates>-50.1281,-15.9149</coordinates></Point>
  </Placemark>
  <Placemark>
	<name>FAZENDA SANTA MARIA</name>
      <Point><coordinates>-50.2475,-17.9811</coordinates></Point>
  </Placemark>
  <Placemark>
	<name>JARAGUÁ</name>
      <Point><coordinates>-49.3189,-15.7242</coordinates></Point>
  </Placemark>
  <Placemark>
	<name>MAURILÂNDIA - P</name>
      <Point><coordinates>-50.3377,-17.9744</coordinates></Point>
  </Placemark>
  <Placemark>
	<name>MAURILÂNDIA - F</name>
      <Point><coordinates>-50.3328,-17.9675</coordinates></Point>
  </Placemark>
  <Placemark>
	<name>PONTE MEIA PONTE - P</name>
      <Point><coordinates>-49.6108,-18.3389</coordinates></Point>
  </Placemark>
  <Placemark>
	<name>PONTE MEIA PONTE - F</name>
      <Point><coordinates>-49.6018,-18.3489</coordinates></Point>
  </Placemark>
  <Placemark>
	<name>PONTE RODAGEM</name>
      <Point><coordinates>-50.6819,-17.3253</coordinates></Point>
  </Placemark>
  <Placemark>
	<name>URUANA - P</name>
      <Point><coordinates>-49.693,-15.4965</coordinates></Point>
  </Placemark>
  <Placemark>
	<name>URUANA - F</name>
      <Point><coordinates>-49.6911,-15.4968</coordinates></Point>
  </Placemark>
</Folder>
</Document></kml>
